City_ID,City,Lat,Lng,Max Temp,Humidity,Cloudiness,Wind Speed,Country,Date
0,labrador city,52.9463,-66.9114,1.9500000000000455,44,75,6.69,CA,1684774001
1,ushuaia,-54.8,-68.3,3.7900000000000205,81,0,1.03,AR,1684773905
2,hermanus,-34.4187,19.2345,15.450000000000045,62,100,3.13,ZA,1684773929
3,aykhal,66.0,111.5,-1.5,98,100,2.75,RU,1684773905
4,shingu,33.7333,135.9833,18.150000000000034,89,100,1.87,JP,1684774361
5,west island,-12.1568,96.8225,25.99000000000001,89,40,1.54,CC,1684773917
6,camapua,-19.5314,-54.0439,28.629999999999995,37,78,3.41,BR,1684774361
7,nakhon thai,17.1006,100.8374,26.420000000000016,78,83,1.49,TH,1684774361
8,acara,-1.9608,-48.1967,30.590000000000032,64,81,1.61,BR,1684774361
9,albany,42.6001,-73.9662,21.560000000000002,51,2,0.89,US,1684773749
10,cidade velha,14.9167,-23.6167,26.260000000000048,61,40,10.29,CV,1684774361
11,al ghayzah,16.2079,52.176,29.560000000000002,70,37,6.36,YE,1684774362
12,adamstown,-25.066,-130.1015,24.430000000000007,82,100,8.67,PN,1684773898
13,dudinka,69.4058,86.1778,0.9000000000000341,98,100,5.1,RU,1684773992
14,kodiak,57.79,-152.4072,5.730000000000018,87,100,8.75,US,1684773930
15,tiksi,71.6872,128.8694,-14.039999999999964,95,24,2.93,RU,1684773899
16,ilulissat,69.2167,-51.1,0.010000000000047748,59,0,8.23,GL,1684773905
17,hawaiian paradise park,19.5933,-154.9731,21.129999999999995,95,75,1.54,US,1684773915
18,fale old settlement,-9.3852,-171.2468,28.25,77,84,5.55,TK,1684773958
19,margaret river,-33.95,115.0667,16.620000000000005,85,85,3.86,AU,1684773900
20,jayrud,33.8074,36.7404,24.700000000000045,31,31,8.42,SY,1684774362
21,keflavik,64.0049,-22.5624,8.240000000000009,61,100,5.14,IS,1684773836
22,uturoa,-16.7333,-151.4333,27.5,78,5,5.72,PF,1684773929
23,santa cruz,-17.8,-63.1667,28.03000000000003,74,75,7.72,BO,1684774326
24,rundu,-17.9333,19.7667,23.900000000000034,22,9,0.74,NA,1684773900
25,mejit,10.2753,170.8646,27.870000000000005,80,100,6.48,MH,1684773985
26,bairnsdale,-37.8333,147.6167,6.7000000000000455,90,14,2.84,AU,1684774362
27,yellowknife,62.456,-114.3525,11.29000000000002,54,0,5.14,CA,1684773928
28,avarua,-21.2078,-159.775,22.03000000000003,73,75,1.54,CK,1684773916
29,vilhena,-12.7406,-60.1458,29.120000000000005,61,0,4.63,BR,1684774363
30,blackmans bay,-43.0167,147.3167,13.180000000000007,68,78,4.16,AU,1684773900
31,port-aux-francais,-49.35,70.2167,6.6200000000000045,87,32,8.57,TF,1684773901
32,longyearbyen,78.2186,15.6401,3.910000000000025,81,75,5.14,SJ,1684773684
33,iqaluit,63.7506,-68.5145,-8.149999999999977,67,75,4.63,CA,1684773916
34,vadso,70.0744,29.7487,14.490000000000009,71,0,8.23,NO,1684773956
35,edinburgh of the seven seas,-37.0676,-12.3116,13.360000000000014,67,76,11.07,SH,1684773902
36,port elizabeth,-33.918,25.5701,14.160000000000025,78,0,3.6,ZA,1684773929
37,stanley,54.868,-1.6985,13.770000000000039,71,40,6.17,GB,1684773791
38,puerto ayora,-0.7393,-90.3518,28.980000000000018,88,69,3.58,EC,1684773918
39,north bend,43.4065,-124.2243,15.689999999999998,76,20,4.63,US,1684774363
40,anadyr,64.75,177.4833,-1.7199999999999704,100,75,1.0,RU,1684773899
41,hauterive,46.0901,3.4459,23.420000000000016,73,21,3.24,FR,1684773968
42,weno,7.4515,151.8468,26.970000000000027,94,75,4.12,FM,1684773944
43,konstantinovka,49.6167,127.9833,13.79000000000002,50,36,2.88,RU,1684774363
44,taoudenni,22.6783,-3.9836,36.460000000000036,9,43,7.06,ML,1684774363
45,la sarre,48.8002,-79.1996,11.080000000000041,32,11,2.03,CA,1684774364
46,tsiombe,-25.3,45.4833,19.680000000000007,79,9,2.62,MG,1684773922
47,hithadhoo,-0.6,73.0833,28.74000000000001,70,52,1.51,MV,1684773945
48,chepo,9.1667,-79.1,28.450000000000045,73,100,2.65,PA,1684774364
49,bilibino,68.0546,166.4372,2.410000000000025,98,100,1.43,RU,1684773912
50,udachny,66.4167,112.4,1.920000000000016,55,99,1.75,RU,1684773900
51,whitehorse,60.7161,-135.0538,8.390000000000043,52,40,0.0,CA,1684773922
52,crucecita,-28.95,-58.9833,21.27000000000004,80,100,2.78,AR,1684774364
53,vilyuysk,63.7553,121.6247,-1.25,61,64,1.98,RU,1684773968
54,portland,45.5234,-122.6762,14.82000000000005,66,75,3.6,US,1684774340
55,ketchikan,55.3422,-131.6461,11.260000000000048,62,20,5.14,US,1684773917
56,qaqortoq,60.7167,-46.0333,2.9700000000000273,97,100,10.04,GL,1684773958
57,carnarvon,-24.8667,113.6333,20.970000000000027,61,79,2.76,AU,1684773945
58,grytviken,-54.2811,-36.5092,5.010000000000048,95,99,1.85,GS,1684773900
59,lompoc,34.6391,-120.4579,15.080000000000041,81,100,1.34,US,1684773906
60,puerto natales,-51.7236,-72.4875,6.25,42,0,7.72,CL,1684773738
61,humaita,-7.5061,-63.0208,35.22000000000003,43,14,2.01,BR,1684774295
62,miguel alves,-4.1656,-42.8953,33.129999999999995,45,75,2.47,BR,1684774364
63,gokwe,-18.2048,28.9349,19.189999999999998,30,35,1.18,ZW,1684774015
64,invercargill,-46.4,168.35,9.150000000000034,86,100,4.73,NZ,1684773906
65,itaituba,-4.2761,-55.9836,33.09000000000003,62,40,4.12,BR,1684774365
66,gebeit,21.0667,36.3167,29.629999999999995,15,0,3.64,SD,1684774365
67,babo-pangulo,15.0833,120.5167,27.100000000000023,78,75,3.09,PH,1684774365
68,akonolinga,3.7667,12.25,22.74000000000001,95,63,1.0,CM,1684774016
69,berrotaran,-32.451,-64.3887,22.27000000000004,54,3,2.46,AR,1684774163
70,kaa-khem,51.6833,94.7333,12.330000000000041,57,100,1.34,RU,1684774365
71,olonkinbyen,70.9221,-8.7187,1.2600000000000477,92,39,6.33,SJ,1684773938
72,ribeira grande,38.5167,-28.7,20.220000000000027,73,75,5.81,PT,1684773900
73,nimaj,26.1497,74.0,33.81,20,62,6.52,IN,1684774365
74,remire-montjoly,4.9167,-52.2667,29.02000000000004,79,75,4.12,GF,1684773987
75,bethel,41.3712,-73.414,24.120000000000005,57,0,2.57,US,1684773925
76,kapuskasing,49.4169,-82.4331,12.050000000000011,37,75,1.54,CA,1684773931
77,dolinsk,47.35,142.8,3.140000000000043,93,91,2.2,RU,1684773964
78,san antonio,29.4241,-98.4936,27.980000000000018,63,0,2.06,US,1684773741
79,port saint john's,-31.6229,29.5448,16.29000000000002,67,26,1.28,ZA,1684774365
80,mount gambier,-37.8333,140.7667,11.470000000000027,76,100,2.15,AU,1684773964
81,constantia,44.1833,28.65,17.610000000000014,80,40,2.77,RO,1684773986
82,ilebo,-4.3167,20.5833,21.860000000000014,98,91,1.38,CD,1684774366
83,cabo san lucas,22.8909,-109.9124,32.32000000000005,29,0,1.03,MX,1684773871
84,palopo,-2.9996,120.1921,24.83000000000004,89,100,0.95,ID,1684774366
85,salalah,17.0151,54.0924,30.05000000000001,74,40,4.63,OM,1684773948
86,okuta,9.2167,3.1833,30.710000000000036,62,66,2.24,NG,1684774366
87,geraldton,-28.7667,114.6,12.230000000000018,76,100,2.57,AU,1684774366
88,tarakan,3.3,117.6333,26.80000000000001,84,93,2.58,ID,1684774366
89,salekhard,66.53,66.6019,12.970000000000027,68,4,4.28,RU,1684774366
90,masasi,-10.7167,38.8,24.430000000000007,65,94,0.79,TZ,1684774366
91,olyokminsk,60.3736,120.4264,0.82000000000005,52,46,1.06,RU,1684774011
92,lihue,21.9789,-159.3672,23.77000000000004,85,100,7.2,US,1684773964
93,sao joao da barra,-21.6403,-41.0511,27.05000000000001,63,99,3.44,BR,1684774020
94,st. john's,47.5649,-52.7093,13.210000000000036,94,100,3.09,CA,1684773756
95,krasnyy chikoy,50.3643,108.7512,9.170000000000016,49,90,0.98,RU,1684774367
96,arkhangel'sk,64.5401,40.5433,18.27000000000004,40,100,1.82,RU,1684774367
97,east london,-33.0153,27.9116,10.520000000000039,87,0,1.03,ZA,1684773995
98,antonio enes,-16.2325,39.9086,24.650000000000034,77,1,3.69,MZ,1684774367
99,walvis bay,-22.9575,14.5053,17.410000000000025,66,14,3.52,NA,1684774367
100,klaksvik,62.2266,-6.589,9.510000000000048,74,21,10.25,FO,1684774367
101,apolinario saravia,-24.4328,-63.9954,28.49000000000001,48,2,6.43,AR,1684774367
102,port alfred,-33.5906,26.891,15.29000000000002,59,98,4.54,ZA,1684773933
103,utrik,11.2278,169.8474,27.82000000000005,80,99,5.87,MH,1684773901
104,sferracavallo,42.726,12.0956,23.200000000000045,81,81,0.89,IT,1684773917
105,holualoa,19.6228,-155.9522,21.04000000000002,94,40,4.63,US,1684774367
106,nova sintra,14.8667,-24.7167,20.350000000000023,81,100,8.05,CV,1684773915
107,saynshand,44.8824,110.1163,16.200000000000045,19,77,4.36,MN,1684774367
108,georgetown,5.4112,100.3354,28.970000000000027,79,20,1.03,MY,1684774090
109,molde,62.7375,7.1591,14.910000000000025,58,40,6.17,NO,1684774123
110,bamyan,34.75,67.25,9.53000000000003,74,100,1.6,AF,1684774368
111,castres,43.5833,2.1667,21.5,78,75,2.06,FR,1684774368
112,punta arenas,-53.15,-70.9167,4.060000000000002,65,0,4.63,CL,1684773691
113,new norfolk,-42.7826,147.0587,13.840000000000032,72,98,0.89,AU,1684774368
114,papatowai,-46.5619,169.4708,10.430000000000007,83,100,5.01,NZ,1684773945
115,lospalos,-8.5186,127.0025,20.710000000000036,91,86,2.92,TL,1684774368
116,waitangi,-43.9535,-176.5597,12.910000000000025,79,7,3.07,NZ,1684773902
117,loreto,22.2667,-101.9667,23.879999999999995,39,56,0.4,MX,1684774027
118,ghat,24.9647,10.1728,37.32000000000005,6,35,6.12,LY,1684774368
119,opuwo,-18.0607,13.84,23.410000000000025,21,0,1.74,NA,1684774368
120,isafjordur,66.0755,-23.124,8.020000000000039,39,20,3.09,IS,1684773926
121,vorgashor,67.5833,63.95,6.28000000000003,95,53,0.59,RU,1684773903
122,boysun,38.2061,67.1986,24.629999999999995,26,100,1.12,UZ,1684774368
123,crane,31.3974,-102.3501,25.730000000000018,51,11,6.7,US,1684773914
124,enewetak,11.3474,162.3373,27.680000000000007,81,94,6.05,MH,1684773902
125,kirakira,-10.4544,161.9205,26.53000000000003,82,100,2.97,SB,1684774369
126,polyarnyy,69.1989,33.4478,13.07000000000005,67,100,7.21,RU,1684774369
127,karratha,-20.7377,116.8463,18.870000000000005,54,26,3.99,AU,1684773781
128,wailua homesteads,22.0669,-159.378,23.439999999999998,87,100,7.2,US,1684773912
129,mount isa,-20.7333,139.5,5.8700000000000045,61,3,2.57,AU,1684773923
130,guatrache,-37.6678,-63.5302,16.77000000000004,63,91,3.57,AR,1684774369
131,fortaleza,-3.7227,-38.5247,30.07000000000005,70,40,5.14,BR,1684774200
132,luderitz,-26.6481,15.1594,14.160000000000025,83,4,3.24,NA,1684773968
133,kerikeri,-35.2268,173.9474,12.170000000000016,95,95,2.05,NZ,1684774369
134,chibougamau,49.9168,-74.3659,3.7900000000000205,33,0,0.0,CA,1684774369
135,thompson,55.7435,-97.8558,12.090000000000032,47,75,2.57,CA,1684773746
136,nemuro,43.3236,145.575,5.830000000000041,90,94,4.37,JP,1684773911
137,kurnool,15.8309,78.0425,34.73000000000002,34,96,5.6,IN,1684774369
138,colonia,50.9333,6.95,24.210000000000036,69,20,5.14,DE,1684773662
139,jinka,5.65,36.65,19.960000000000036,77,100,1.49,ET,1684774370
140,san antonio oeste,-40.7319,-64.9477,15.850000000000023,45,30,1.14,AR,1684774076
141,cartagena,10.3997,-75.5144,28.79000000000002,79,75,0.0,CO,1684774090
142,college,64.8569,-147.8028,9.770000000000039,79,100,4.63,US,1684773918
143,kappeln,54.6612,9.9313,19.970000000000027,89,96,4.0,DE,1684774370
144,pathein,16.7833,94.7333,28.0,82,17,4.7,MM,1684774370
145,egilsstadir,65.2653,-14.3948,11.950000000000045,32,0,8.23,IS,1684773964
146,saint-francois,46.4154,3.9054,22.689999999999998,60,20,4.12,FR,1684773993
147,talnakh,69.4865,88.3972,0.6700000000000159,98,100,2.82,RU,1684773952
148,martapura,-3.4167,114.85,23.32000000000005,89,32,0.77,ID,1684774025
149,seryshevo,51.0933,128.3786,12.230000000000018,43,3,0.51,RU,1684774370
150,fisterra,42.9049,-9.2629,22.640000000000043,74,30,11.37,ES,1684773935
151,qarqaraly,49.4058,75.4742,11.520000000000039,37,48,2.97,KZ,1684774370
152,pindushi,62.9152,34.58,16.560000000000002,68,94,3.74,RU,1684774371
153,mutum,-19.8,-41.4383,26.870000000000005,35,67,0.89,BR,1684774371
154,mahibadhoo,3.7833,72.9667,28.950000000000045,71,14,1.43,MV,1684774371
155,tazovsky,67.4667,78.7,1.4600000000000364,98,97,5.3,RU,1684773932
156,hamilton,39.1834,-84.5333,26.460000000000036,43,75,0.89,US,1684773805
157,meadow lakes,61.6247,-149.6011,9.950000000000045,57,0,3.09,US,1684774371
158,jamestown,42.097,-79.2353,21.680000000000007,46,0,2.57,US,1684773631
159,petropavlovsk-kamchatsky,53.0452,158.6483,0.3300000000000409,93,75,1.0,RU,1684773955
160,la passe,45.5549,-0.8967,24.129999999999995,77,53,5.15,FR,1684773952
161,palu,-0.8917,119.8707,24.28000000000003,95,92,1.05,ID,1684774371
162,horta,38.5333,-28.6333,19.80000000000001,81,75,5.81,PT,1684774006
163,alaghsas,17.0187,8.0168,41.94,20,20,1.54,NE,1684773958
164,alappuzha,9.49,76.3264,28.340000000000032,76,100,0.83,IN,1684774371
165,katsuura,35.1333,140.3,16.52000000000004,89,100,7.43,JP,1684774371
166,gisborne,-38.6533,178.0042,12.770000000000039,92,100,0.75,NZ,1684774372
167,saldanha,-33.0117,17.9442,16.03000000000003,73,98,4.45,ZA,1684774016
168,hotan,37.0997,79.9269,25.430000000000007,10,31,3.01,CN,1684773928
169,castillos,-34.1667,-53.8333,21.430000000000007,70,72,3.37,UY,1684774372
170,kavieng,-2.5744,150.7967,27.400000000000034,81,100,7.43,PG,1684774372
171,wellington,-41.2866,174.7756,9.810000000000002,93,20,1.54,NZ,1684774204
172,midvagur,62.0511,-7.1939,9.460000000000036,81,75,5.14,FO,1684774372
173,sitka,57.0531,-135.33,8.939999999999998,71,75,4.12,US,1684773927
174,san luis de la loma,17.2706,-100.8939,31.57000000000005,60,49,3.45,MX,1684773953
175,gadzhiyevo,69.2551,33.3362,12.860000000000014,67,100,7.21,RU,1684773932
176,thabazimbi,-24.5917,27.4116,18.010000000000048,24,6,0.85,ZA,1684774372
177,benguela,-12.5763,13.4055,24.03000000000003,83,84,3.3,AO,1684774372
178,pemangkat,1.1667,108.9667,26.670000000000016,85,99,2.44,ID,1684774019
179,valuyki,50.2035,38.1067,15.240000000000009,76,100,3.75,RU,1684774373
180,ola,59.5833,151.2833,2.8500000000000227,88,100,0.32,RU,1684773918
181,praia da vitoria,38.7333,-27.0667,18.140000000000043,88,40,7.47,PT,1684774013
182,bandar lampung,-5.4254,105.258,23.680000000000007,92,86,1.47,ID,1684774373
183,mujiayingzi,42.1167,118.7833,13.470000000000027,33,20,3.4,CN,1684774373
184,akrehamn,59.2667,5.1833,10.680000000000007,93,100,5.66,NO,1684774018
185,dowlatabad,32.7998,51.6955,24.82000000000005,18,40,8.23,IR,1684774373
186,pizarro,4.9533,-77.366,25.480000000000018,88,100,1.08,CO,1684774012
187,port mathurin,-19.6833,63.4167,24.960000000000036,70,20,2.66,MU,1684773912
188,katsuren-haebaru,26.3369,127.8719,25.220000000000027,100,59,8.45,JP,1684774373
189,san antonio de pale,-1.4014,5.6325,26.340000000000032,76,87,4.49,GQ,1684774373
190,klyuchi,52.2667,79.1667,16.970000000000027,37,42,2.52,RU,1684773964
191,nyurba,63.2842,118.3319,0.5,59,100,1.55,RU,1684774378
192,pacasmayo,-7.4006,-79.5714,25.27000000000004,69,19,4.68,PE,1684774379
193,salinas,36.6777,-121.6555,14.120000000000005,80,100,2.57,US,1684774379
194,salavan,15.7167,106.4167,23.08000000000004,97,100,1.75,LA,1684774379
195,borogontsy,62.6683,131.1683,-2.0499999999999545,82,90,2.23,RU,1684774379
196,kinango,-4.1372,39.3153,22.970000000000027,90,26,2.12,KE,1684774379
197,kudahuvadhoo,2.6708,72.8944,28.710000000000036,73,6,1.77,MV,1684774379
198,codrington,-38.2667,141.9667,11.760000000000048,74,100,3.62,AU,1684773967
199,wau,7.7029,27.9953,33.420000000000016,29,25,1.78,SS,1684774379
200,dvurechensk,56.5982,61.0953,16.939999999999998,41,52,1.83,RU,1684774379
201,mossel bay,-34.1831,22.146,14.960000000000036,72,100,5.78,ZA,1684773952
202,anna regina,7.2644,-58.5077,26.620000000000005,87,100,3.19,GY,1684774379
203,muisne,0.6,-80.0333,28.230000000000018,73,56,3.78,EC,1684774380
204,wenchang,30.904,118.4887,13.010000000000048,92,75,2.43,CN,1684774380
205,fort st. john,56.2499,-120.8529,10.939999999999998,93,100,5.66,CA,1684774380
206,penzance,50.1186,-5.5371,17.090000000000032,72,0,11.83,GB,1684773921
207,ulladulla,-35.35,150.4667,8.490000000000009,74,42,2.05,AU,1684774380
208,tongouson,5.0214,120.1328,28.79000000000002,77,15,4.21,PH,1684774380
209,cill airne,52.05,-9.5167,15.03000000000003,67,75,4.63,IE,1684774380
210,sao felix do xingu,-6.6447,-51.995,32.31,52,26,2.53,BR,1684773974
211,takedamachi,32.9667,131.4,15.980000000000018,97,99,1.02,JP,1684774380
212,basco,20.4487,121.9702,28.890000000000043,83,8,8.77,PH,1684774380
213,tofol,5.3248,163.0078,26.53000000000003,82,100,0.76,FM,1684773964
214,atafu village,-8.5421,-172.5159,28.450000000000045,76,83,4.93,TK,1684773901
215,tchintabaraden,15.8969,5.7985,39.33000000000004,18,100,3.02,NE,1684774381
216,bel ombre,-4.6167,55.4167,27.910000000000025,74,20,2.06,SC,1684774009
217,puerto armuelles,8.2833,-82.8667,28.99000000000001,77,100,0.88,PA,1684774020
218,waingapu,-9.6567,120.2641,23.29000000000002,86,9,3.83,ID,1684773990
219,ancud,-41.8697,-73.8203,9.75,82,97,5.11,CL,1684773924
220,amos,48.5669,-78.1162,12.25,24,9,1.41,CA,1684774381
221,cooper's town,26.8667,-77.5167,25.660000000000025,73,3,4.93,BS,1684774024
222,campos altos,-19.6961,-46.1714,22.07000000000005,47,100,2.57,BR,1684774381
223,cabedelo,-6.9811,-34.8339,30.370000000000005,70,40,6.22,BR,1684774021
224,namibe,-15.1961,12.1522,21.620000000000005,77,0,4.65,AO,1684774001
225,igarka,67.4667,86.5833,2.2900000000000205,99,100,4.26,RU,1684773930
226,zaozersk,69.4005,32.4476,11.510000000000048,70,89,5.91,RU,1684774381
227,blagoveshchensk,50.2667,127.5333,10.340000000000032,71,20,0.0,RU,1684774381
228,afaahiti,-17.75,-149.2833,24.930000000000007,80,5,7.1,PF,1684773947
229,onega,63.9061,38.1404,17.879999999999995,45,87,3.55,RU,1684773953
230,sakata,38.9167,139.855,13.840000000000032,76,100,2.74,JP,1684774381
231,carutapera,-1.195,-46.02,30.890000000000043,62,78,3.52,BR,1684774382
232,axim,4.8699,-2.2405,25.53000000000003,89,100,2.72,GH,1684774382
233,tolanaro,-25.0319,46.9987,23.04000000000002,73,40,2.06,MG,1684773916
234,purna,19.1833,77.05,36.22000000000003,21,72,1.72,IN,1684774382
235,kualakapuas,-3.0091,114.3876,23.160000000000025,89,33,1.24,ID,1684774382
236,mooloolaba,-26.6833,153.1167,11.830000000000041,96,5,0.45,AU,1684774382
237,tottori,35.5,134.2333,13.450000000000045,90,100,0.85,JP,1684774382
238,saham,24.1722,56.8886,33.64000000000004,42,75,3.34,OM,1684774383
239,boyolangu,-8.1181,111.8935,23.24000000000001,90,75,1.13,ID,1684774023
240,korla,41.7597,86.1469,21.100000000000023,24,72,4.44,CN,1684773912
241,turgen,43.4006,77.5933,15.07000000000005,67,86,2.52,KZ,1684774383
242,balfour,-26.6633,28.5902,10.879999999999995,35,58,0.83,ZA,1684774383
243,al mutayrifi,25.4788,49.5576,38.19,21,0,4.26,SA,1684774383
244,belyy yar,53.6039,91.3903,13.939999999999998,44,0,2.0,RU,1684774384
245,alice springs,-23.7,133.8833,3.75,93,0,3.31,AU,1684773916
246,pisco,-13.7,-76.2167,23.03000000000003,68,100,4.12,PE,1684773900
247,rouissat,31.9243,5.3502,37.04000000000002,6,1,9.26,DZ,1684774384
248,yuci,37.6803,112.7319,13.860000000000014,44,0,2.0,CN,1684774384
249,peniche,39.3558,-9.3811,20.060000000000002,65,95,5.96,PT,1684774384
250,las vegas,36.175,-115.1372,31.720000000000027,26,0,3.09,US,1684774385
251,konarka,19.9,86.1167,30.220000000000027,79,37,9.37,IN,1684774385
252,backo petrovo selo,45.7081,20.0753,21.99000000000001,59,89,2.12,RS,1684774385
253,kolonia town,6.964,158.206,28.02000000000004,73,100,0.63,FM,1684774385
254,vorkuta,67.5,64.0,6.6299999999999955,95,45,0.82,RU,1684774385
255,irymple,-34.25,142.1667,7.480000000000018,78,25,1.91,AU,1684774385
256,meknes,33.9776,-5.525,18.49000000000001,59,40,6.69,MA,1684774385
257,guerrero negro,27.9769,-114.0611,18.680000000000007,68,53,5.75,MX,1684773899
258,bandarbeyla,9.4942,50.8122,27.870000000000005,81,89,4.99,SO,1684773957
259,sodankyla,67.4167,26.6,18.33000000000004,49,100,1.82,FI,1684774386
260,dakhla,23.6848,-15.958,22.010000000000048,56,100,7.72,EH,1684774386
261,mont-tremblant,46.1949,-74.6264,12.770000000000039,35,1,0.51,CA,1684774386
262,papa,47.33,17.4674,23.840000000000032,68,75,1.03,HU,1684774386
263,craig,40.5153,-107.5464,17.970000000000027,36,0,1.54,US,1684774386
264,jayapura,-2.5333,140.7,23.660000000000025,89,100,2.08,ID,1684774386
265,porto novo,6.4965,2.6036,29.900000000000034,78,96,4.69,BJ,1684774386
266,arauca,7.0847,-70.7591,27.0,83,75,3.6,CO,1684774386
267,soe,-9.8607,124.284,16.720000000000027,94,43,1.83,ID,1684774007
268,ust-nera,64.5667,143.2,1.9600000000000364,97,100,1.35,RU,1684773945
269,haiku-pauwela,20.9219,-156.3051,23.910000000000025,75,20,7.2,US,1684773912
270,suva,-18.1416,178.4415,23.710000000000036,94,75,0.0,FJ,1684773969
271,brisas de zicatela,15.8369,-97.0419,31.27000000000004,60,99,3.23,MX,1684774387
272,pariaman,-0.619,100.12,25.450000000000045,87,93,1.44,ID,1684774387
273,san juan de miraflores,-12.1629,-76.9635,25.090000000000032,70,94,3.59,PE,1684774387
274,piti village,13.4626,144.6933,27.49000000000001,95,40,5.14,GU,1684774387
275,grantsville,40.5999,-112.4644,26.400000000000034,27,0,2.68,US,1684774328
276,bajil,15.0584,43.2851,33.410000000000025,48,17,2.83,YE,1684774387
277,villamontes,-21.25,-63.5,21.689999999999998,83,100,0.0,BO,1684774387
278,pendleton,45.6721,-118.7886,15.129999999999995,53,0,11.32,US,1684774387
279,lazaro cardenas,17.9583,-102.2,31.80000000000001,57,40,3.66,MX,1684774388
280,aasiaat,68.7098,-52.8699,-0.6099999999999568,67,23,7.29,GL,1684773904
281,aguas vermelhas,-15.7472,-41.46,26.140000000000043,41,32,2.87,BR,1684774388
282,zaragoza,41.6561,-0.8773,22.25,53,100,6.69,ES,1684774388
283,tralee,52.2704,-9.7026,15.140000000000043,67,75,4.63,IE,1684773986
284,glace bay,46.1969,-59.957,8.830000000000041,76,75,7.72,CA,1684774388
285,caraguatatuba,-23.6338,-45.4899,27.160000000000025,48,100,0.36,BR,1684774289
286,chifeng,42.2683,118.9636,14.5,31,36,3.03,CN,1684774388
287,freetown,8.484,-13.2299,29.840000000000032,70,40,5.14,SL,1684774388
288,neyriz,29.1988,54.3278,21.55000000000001,44,99,2.83,IR,1684774388
289,union city,37.5958,-122.0192,23.810000000000002,80,100,2.57,US,1684774302
290,bikenibeu village,1.3673,173.1241,25.980000000000018,94,20,1.03,KI,1684773912
291,kyzyl-suu,42.3414,78.0056,11.420000000000016,75,100,0.37,KG,1684774388
292,mount pearl,47.5166,-52.7813,12.189999999999998,94,100,3.09,CA,1684773932
293,ovalle,-30.5983,-71.2003,21.560000000000002,35,100,1.28,CL,1684774097
294,anatoli,39.6389,20.8653,18.860000000000014,41,40,3.09,GR,1684774389
295,ciudad melchor muzquiz,27.8833,-101.5167,26.850000000000023,60,10,2.72,MX,1684774389
296,faya-largeau,17.9257,19.1043,40.30000000000001,10,2,1.89,TD,1684774389
297,fort mcmurray,56.7268,-111.381,15.770000000000039,72,20,3.6,CA,1684773916
298,hammerfest,70.6634,23.6821,15.25,51,0,3.09,NO,1684773965
299,nagato,34.3833,131.2,16.200000000000045,84,98,5.5,JP,1684774389
300,lunao,8.8503,125.0564,25.77000000000004,86,48,2.46,PH,1684774389
301,tolga,34.7222,5.3785,31.450000000000045,17,6,10.3,DZ,1684774389
302,badger,64.8,-147.5333,9.730000000000018,82,100,4.63,US,1684773920
303,lebu,-37.6167,-73.65,12.990000000000009,79,57,5.66,CL,1684773932
304,noosa heads,-26.3833,153.15,11.850000000000023,75,2,4.56,AU,1684774390
305,berezivka,47.2043,30.9078,17.189999999999998,78,100,4.1,UA,1684774390
306,tara,56.8944,74.371,14.160000000000025,54,69,3.08,RU,1684774390
307,bardai,11.65,7.2333,34.81,32,26,1.69,NG,1684774390
308,dryden,49.7833,-92.7503,14.160000000000025,51,0,2.06,CA,1684774390
309,ubari,26.5921,12.7805,33.72000000000003,9,11,3.44,LY,1684774390
310,papar,5.7333,115.9333,27.0,88,96,1.54,MY,1684774390
311,brokopondo,4.75,-55.1667,29.29000000000002,72,85,1.73,SR,1684774390
312,shiyan,32.6475,110.7781,13.430000000000007,76,43,1.57,CN,1684774390
313,wewak,-3.5534,143.6268,25.900000000000034,88,100,2.41,PG,1684774390
314,westport,41.1415,-73.3579,25.08000000000004,58,0,3.6,US,1684773781
315,broken hill,-31.95,141.4333,8.170000000000016,74,0,1.18,AU,1684774260
316,pierre,44.3683,-100.351,19.510000000000048,55,0,2.06,US,1684773919
317,ulety,51.3572,112.4849,10.03000000000003,46,54,1.49,RU,1684774391
318,sarikei,2.1167,111.5167,24.210000000000036,98,99,0.2,MY,1684774391
319,fortuna,40.5982,-124.1573,15.520000000000039,82,40,5.66,US,1684773947
320,carmo do paranaiba,-19.0008,-46.3161,23.75,44,98,2.29,BR,1684774391
321,cururupu,-1.8283,-44.8683,31.860000000000014,54,90,2.98,BR,1684774391
322,saipan,15.1355,145.701,27.390000000000043,100,75,9.26,MP,1684773915
323,hargeysa,9.56,44.065,23.99000000000001,63,90,4.55,SO,1684774391
324,porbandar,21.6422,69.6093,28.689999999999998,79,19,4.53,IN,1684774391
325,myeik,12.4333,98.6,27.730000000000018,81,44,2.49,MM,1684774391
326,coquimbo,-29.9533,-71.3436,19.850000000000023,52,0,3.6,CL,1684773989
327,safotu,-13.4513,-172.4018,27.970000000000027,80,100,4.08,WS,1684774392
328,barreiros,-8.8183,-35.1864,28.710000000000036,69,24,4.29,BR,1684774392
329,acapulco de juarez,16.8634,-99.8901,31.900000000000034,58,20,2.57,MX,1684773814
330,port-vila,-17.7338,168.3219,23.090000000000032,92,100,6.87,VU,1684774392
331,nar'yan-mar,67.6713,53.087,13.79000000000002,64,92,4.56,RU,1684773807
332,santa ana,33.7456,-117.8678,19.29000000000002,89,100,2.06,US,1684774346
333,vilyuchinsk,52.9306,158.4028,1.150000000000034,95,100,6.62,RU,1684774015
334,las tablas,7.7667,-80.2833,28.99000000000001,99,100,3.39,PA,1684773985
335,leticia,-4.2153,-69.9406,31.03000000000003,74,40,2.06,CO,1684774392
336,caarapo,-22.6342,-54.8222,24.439999999999998,51,85,3.87,BR,1684774282
337,yarmouth,41.7057,-70.2286,16.450000000000045,71,0,7.72,US,1684774392
338,nobres,-14.7203,-56.3275,33.33000000000004,34,34,2.17,BR,1684774392
339,kanniyakumari,8.0833,77.5667,28.560000000000002,81,59,4.64,IN,1684774392
340,rikaze,29.25,88.8833,11.480000000000018,11,96,2.11,CN,1684774392
341,erbil,36.1926,44.0106,28.900000000000034,20,45,2.06,IQ,1684774393
342,tulum,20.2167,-87.4667,33.44,40,1,1.77,MX,1684774393
343,motygino,58.1831,94.7592,6.910000000000025,87,40,2.12,RU,1684774393
344,okhotsk,59.3833,143.3,0.7600000000000477,100,100,2.43,RU,1684774393
345,kutum,14.2,24.6667,32.32000000000005,12,23,4.82,SD,1684774393
346,mar del plata,-38.0023,-57.5575,16.160000000000025,97,100,2.06,AR,1684774393
347,terbanggi besar,-4.8667,105.2333,23.960000000000036,91,74,2.19,ID,1684774393
348,usinsk,65.9939,57.5281,15.020000000000039,55,10,4.39,RU,1684773944
349,terenos,-20.4422,-54.8603,27.840000000000032,41,75,6.17,BR,1684774393
350,bredasdorp,-34.5322,20.0403,13.860000000000014,63,100,1.95,ZA,1684773926
351,dauphin,51.1494,-100.0502,18.08000000000004,48,0,2.06,CA,1684774394
352,palangkaraya,-2.2,113.8333,24.370000000000005,87,88,1.27,ID,1684774394
353,touros,-5.1989,-35.4608,29.49000000000001,68,77,7.36,BR,1684773983
354,nogliki,51.8333,143.1667,1.4600000000000364,96,100,4.24,RU,1684774394
355,susanville,40.4163,-120.653,21.010000000000048,39,0,1.79,US,1684774234
356,behbahan,30.5959,50.2417,33.110000000000014,16,2,4.43,IR,1684774394
357,caluula,11.9661,50.7569,31.32000000000005,66,63,5.26,SO,1684774394
358,mount darwin,-16.7725,31.5838,21.760000000000048,39,67,1.67,ZW,1684774394
359,isna,25.2934,32.554,37.01000000000005,10,50,4.91,EG,1684774394
360,dongola,19.1667,30.4833,37.379999999999995,8,0,4.69,SD,1684774395
361,amuntai,-2.4177,115.2494,24.060000000000002,90,49,0.37,ID,1684774395
362,hasaki,35.7333,140.8333,16.230000000000018,79,100,9.29,JP,1684773958
363,tubarjal,30.4999,38.216,32.48000000000002,13,5,7.01,SA,1684774395
364,bratsk,56.1325,101.6142,11.270000000000039,92,64,0.88,RU,1684774395
365,robertsport,6.7533,-11.3686,29.420000000000016,72,52,4.84,LR,1684774395
366,chonchi,-42.6128,-73.8092,7.840000000000032,80,86,2.93,CL,1684774018
367,taroa,8.7058,171.2275,28.090000000000032,80,100,6.15,MH,1684774395
368,saacow,1.6279,42.4407,29.30000000000001,55,94,8.42,SO,1684774395
369,karyes,37.3,22.5,11.220000000000027,89,99,1.91,GR,1684774396
370,cabinda,-5.55,12.2,24.980000000000018,85,63,2.81,AO,1684774396
371,maizuru,35.45,135.3333,12.730000000000018,96,100,1.7,JP,1684774396
372,tura,25.5198,90.2201,24.310000000000002,79,16,1.74,IN,1684773952
373,sainte-suzanne,-20.9061,55.6089,24.5,93,100,3.09,RE,1684774396
374,port lincoln,-34.7333,135.8667,13.360000000000014,72,89,2.83,AU,1684773920
375,disa,24.25,72.1667,30.650000000000034,49,12,4.27,IN,1684774396
376,la'ie,21.6477,-157.9253,24.78000000000003,80,73,3.13,US,1684773932
377,janja,44.6653,19.2478,22.840000000000032,77,27,2.98,BA,1684774396
378,kamiiso,41.8167,140.65,7.5400000000000205,87,5,2.16,JP,1684774402
379,cumana,10.4635,-64.1775,27.060000000000002,79,100,2.42,VE,1684774402
380,taltal,-25.4,-70.4833,20.460000000000036,64,3,2.63,CL,1684774402
381,howrah,22.5892,88.3103,30.0,84,20,4.12,IN,1684773931
382,uyovu,-3.2833,31.5258,22.400000000000034,63,52,2.24,TZ,1684774402
383,iskateley,67.6803,53.1512,13.600000000000023,64,92,4.58,RU,1684774003
384,yaren,-0.5472,166.916,27.930000000000007,77,74,2.97,NR,1684774027
385,colesberg,-30.72,25.0972,9.850000000000023,28,69,1.76,ZA,1684774402
386,amga,60.8953,131.9608,-1.75,79,38,1.36,RU,1684773991
387,arno,60.1167,18.6333,14.980000000000018,54,100,4.04,SE,1684774402
388,jalai nur,49.45,117.7,13.650000000000034,27,1,2.65,CN,1684774402
389,bengkulu,-3.8004,102.2655,24.600000000000023,92,26,1.59,ID,1684774403
390,ventspils,57.3894,21.5606,18.960000000000036,39,0,4.63,LV,1684774403
391,severo-yeniseyskiy,60.3725,93.0408,3.1100000000000136,88,62,1.64,RU,1684773980
392,usogorsk,63.4106,48.6872,16.620000000000005,49,95,3.33,RU,1684774403
393,batalha,-9.6778,-37.1247,27.370000000000005,77,82,5.1,BR,1684774403
394,lethem,3.3803,-59.7968,32.04000000000002,59,73,2.92,GY,1684774403
395,happy valley-goose bay,53.3168,-60.3315,4.170000000000016,52,75,7.72,CA,1684773899
396,bidar,17.9,77.55,32.870000000000005,30,61,3.86,IN,1684774403
397,talodi,10.6325,30.3797,35.79000000000002,10,2,1.22,SD,1684774403
398,kolonia,50.9333,6.95,23.660000000000025,69,20,5.14,DE,1684774345
399,ariquemes,-9.9133,-63.0408,28.590000000000032,85,74,1.13,BR,1684774403
400,alofi,-19.0595,-169.9187,21.939999999999998,83,40,2.57,NU,1684774404
401,na wa,17.4897,104.1006,28.810000000000002,62,52,1.73,TH,1684774404
402,nouadhibou,20.931,-17.0347,22.99000000000001,56,100,9.26,MR,1684774028
403,bedesa,8.9,40.7833,18.660000000000025,75,39,1.62,ET,1684774404
404,emerald,-23.5333,148.1667,10.189999999999998,59,0,3.54,AU,1684774404
405,spring creek,40.7266,-115.5859,20.220000000000027,45,87,2.1,US,1684774404
406,sur,22.5667,59.5289,32.400000000000034,57,66,0.61,OM,1684774404
407,balaipungut,1.05,101.2833,23.890000000000043,97,78,0.67,ID,1684774404
408,adamovka,51.5223,59.9396,17.32000000000005,39,61,3.7,RU,1684774404
409,trenggalek,-8.05,111.7167,23.410000000000025,92,83,1.12,ID,1684774404
410,tabou,4.423,-7.3528,28.950000000000045,71,30,3.51,CI,1684774405
411,farsan,32.2569,50.561,18.02000000000004,31,40,2.27,IR,1684774405
412,alto barinas,8.5931,-70.2261,24.04000000000002,100,100,1.68,VE,1684774405
413,fukuecho,32.6881,128.8419,17.879999999999995,85,68,7.63,JP,1684774405
414,ifrane,33.3333,-5.25,8.78000000000003,60,97,6.13,MA,1684774405
415,ratnagiri,16.9833,73.3,28.400000000000034,81,3,5.61,IN,1684774405
416,puerto carreno,6.189,-67.4859,27.99000000000001,78,75,4.12,CO,1684774405
417,arraial do cabo,-22.9661,-42.0278,25.980000000000018,65,40,6.69,BR,1684773657
418,saint-pierre,-21.3393,55.4781,24.200000000000045,77,1,0.17,RE,1684773925
419,hadibu,12.65,54.0333,30.120000000000005,70,90,2.48,YE,1684773939
420,nadi,-17.8,177.4167,23.0,94,20,0.0,FJ,1684773992
421,tlapehuala,18.2167,-100.5167,37.629999999999995,33,29,0.97,MX,1684774405
422,doncaster,53.5233,-1.1369,20.390000000000043,58,2,4.58,GB,1684774405
423,keningau,5.3378,116.1602,22.390000000000043,99,94,0.33,MY,1684774406
424,rongelap,11.1635,166.8941,27.720000000000027,81,97,5.9,MH,1684773921
425,fengxian,34.7039,116.5872,16.83000000000004,47,84,3.12,CN,1684774406
426,kingston,17.997,-76.7936,33.47000000000003,69,20,4.12,JM,1684773769
427,susuman,62.7833,148.1667,0.07000000000005002,88,100,2.32,RU,1684774012
428,barra de santo antonio,-9.4047,-35.5072,25.600000000000023,77,13,4.02,BR,1684774406
429,mantua,45.1667,10.7833,27.58000000000004,59,5,1.29,IT,1684774406
430,farah,32.5,62.5,29.360000000000014,22,100,4.07,AF,1684774407
431,vernon,50.2581,-119.2691,14.340000000000032,81,99,0.0,CA,1684773816
432,kavalerovo,44.2661,135.0572,5.600000000000023,96,12,1.61,RU,1684774407
433,benjamin constant,-4.3831,-70.0311,31.07000000000005,79,40,2.06,BR,1684774397
434,santiago de cao,-7.9589,-79.2392,24.07000000000005,69,40,3.6,PE,1684774007
435,margate,51.3813,1.3862,16.600000000000023,75,94,2.68,GB,1684773956
436,urumqi,43.801,87.6005,13.53000000000003,67,0,5.0,CN,1684774407
437,tindouf,27.6711,-8.1474,26.25,24,0,9.26,DZ,1684774408
438,macae,-22.3708,-41.7869,26.860000000000014,61,75,4.12,BR,1684774408
439,jasper,37.2001,-94.3502,24.410000000000025,48,40,2.06,US,1684774408
440,tual,-5.6667,132.75,27.5,81,88,9.57,ID,1684773923
441,bonthe,7.5264,-12.505,30.450000000000045,67,71,3.74,SL,1684774185
442,pandan,14.0453,124.1694,26.700000000000045,85,27,2.76,PH,1684774408
443,tamanrasset,22.785,5.5228,30.950000000000045,14,0,8.75,DZ,1684774408
444,luuq,3.7938,42.5445,33.28000000000003,40,94,4.17,SO,1684774408
445,tripoli,32.8752,13.1875,21.08000000000004,66,0,6.02,LY,1684774249
446,coahuayana de hidalgo,18.7,-103.6583,33.960000000000036,46,26,2.8,MX,1684774011
447,bodo,67.28,14.405,18.02000000000004,45,0,2.06,NO,1684774018
448,guijuelo,40.5576,-5.6707,20.370000000000005,61,100,2.75,ES,1684774409
449,minas de marcona,-15.2119,-75.1103,19.210000000000036,59,45,5.1,PE,1684773929
450,itoman,26.1247,127.6694,25.220000000000027,94,100,8.75,JP,1684774011
451,cedeira,43.6797,-8.0209,17.80000000000001,86,80,9.16,ES,1684774409
452,antsiranana,-12.2787,49.2917,24.860000000000014,82,80,2.79,MG,1684773984
453,lagoa,39.05,-27.9833,16.75,80,53,6.45,PT,1684774409
454,guajara mirim,-10.7828,-65.3394,25.090000000000032,78,100,7.72,BR,1684774409
455,revda,56.801,59.9303,16.30000000000001,43,88,1.07,RU,1684774409
456,canela,-29.3656,-50.8156,18.49000000000001,82,98,1.78,BR,1684774409
457,hurricane,37.1753,-113.2899,27.55000000000001,30,16,1.94,US,1684774288
458,radnor,40.0462,-75.3599,26.28000000000003,43,0,2.06,US,1684774410
459,copala,16.65,-98.9833,32.18000000000001,55,100,3.25,MX,1684774410
460,realico,-35.0366,-64.2447,15.78000000000003,87,94,5.41,AR,1684774410
461,larache,35.1932,-6.1557,18.650000000000034,66,34,2.69,MA,1684774410
462,pekan,3.4836,103.3996,26.060000000000002,87,100,1.46,MY,1684774410
463,ndele,8.4109,20.6473,28.560000000000002,54,36,4.17,CF,1684774410
464,dizangue,3.7667,9.9833,25.860000000000014,93,100,1.87,CM,1684774410
465,fayroz koh,34.5195,65.2509,15.010000000000048,62,100,4.52,AF,1684774410
466,port douglas,-16.4833,145.4667,20.430000000000007,74,84,5.37,AU,1684774410
467,san fernando,15.0286,120.6898,27.850000000000023,80,100,0.4,PH,1684773990
468,khovd,48.0056,91.6419,7.760000000000048,72,99,3.85,MN,1684774411
469,ribeira brava,32.65,-17.0667,21.510000000000048,69,30,2.03,PT,1684773921
470,dhuusamarreeb,5.535,46.3861,31.439999999999998,48,86,5.27,SO,1684774411
471,tinajo,29.0788,-13.7081,22.49000000000001,46,20,9.26,ES,1684774411
472,gillette,44.2911,-105.5022,25.060000000000002,41,0,7.2,US,1684774215
473,phek,25.6667,94.5,13.850000000000023,93,80,0.48,IN,1684774411
474,shorapur,16.5167,76.75,34.24000000000001,26,52,4.29,IN,1684774411
475,monte carmelo,-18.7247,-47.4986,24.29000000000002,38,100,2.78,BR,1684774411
476,rawson,-43.3002,-65.1023,12.25,54,28,5.45,AR,1684774411
477,urengoy,65.9667,78.3667,3.25,99,100,3.42,RU,1684774411
478,nishinoomote,30.7333,131.0,20.57000000000005,84,98,7.02,JP,1684774411
479,muborak,39.2553,65.1528,31.110000000000014,20,100,5.33,UZ,1684774412
480,chingirlau,51.095,54.0814,17.710000000000036,49,100,6.38,KZ,1684774412
481,barguzin,53.6167,109.6167,10.79000000000002,49,98,2.42,RU,1684774412
482,gilgit,35.9221,74.3087,22.900000000000034,45,95,0.77,PK,1684774412
483,lincoln,40.8,-96.667,25.07000000000005,45,0,3.09,US,1684774271
484,krasnaya gorbatka,55.8703,41.7641,16.870000000000005,67,95,2.61,RU,1684774412
485,mahajanga,-15.7167,46.3167,25.010000000000048,88,0,3.09,MG,1684774412
486,fairdale,38.1051,-85.7589,25.58000000000004,40,100,7.2,US,1684774412
487,toksovo,60.1532,30.5165,15.700000000000045,66,54,2.24,RU,1684774412
488,mo i rana,66.3128,14.1428,21.260000000000048,48,0,1.54,NO,1684774412
489,gasa,31.5,34.4667,25.49000000000001,73,0,3.09,PS,1684774412
490,meads,38.4126,-82.7091,23.939999999999998,50,0,3.09,US,1684774413
491,la libertad,-2.2333,-80.9,28.810000000000002,79,20,4.12,EC,1684773925
492,palikir - national government center,6.9248,158.1611,27.49000000000001,73,100,0.8,FM,1684774015
493,al bahah,20.0129,41.4677,21.680000000000007,45,54,1.86,SA,1684774413
494,sabang,5.8933,95.3214,28.77000000000004,74,74,2.96,ID,1684774413
495,rio grande,-32.035,-52.0986,26.060000000000002,76,72,4.21,BR,1684774317
496,akjoujt,19.6969,-14.4164,36.19,13,60,7.0,MR,1684774413
497,mangrol,21.1167,70.1167,28.52000000000004,76,2,4.11,IN,1684774413
498,posto fiscal rolim de moura,-13.0833,-62.2667,34.76000000000005,40,6,1.49,BR,1684774413
499,sarangani,5.4033,125.4636,28.360000000000014,79,27,6.32,PH,1684774413
500,concepcion del oro,24.6333,-101.4167,20.970000000000027,38,5,0.85,MX,1684774307
501,bhasawar,27.0333,77.0333,36.25,19,88,4.95,IN,1684774414
502,khark,29.2614,50.3306,27.05000000000001,77,0,4.12,IR,1684773990
503,big bend,-26.8167,31.9333,18.05000000000001,63,68,2.06,SZ,1684774414
504,luwingu,-10.2621,29.9271,21.120000000000005,56,97,0.51,ZM,1684774414
505,slaton,33.4373,-101.6435,24.860000000000014,55,14,4.48,US,1684774244
506,pudozh,61.8099,36.5345,16.04000000000002,81,98,2.2,RU,1684774001
507,shizuishan,39.2333,106.7694,16.600000000000023,15,71,3.82,CN,1684774414
508,balkh,36.75,67.0,31.510000000000048,14,100,1.55,AF,1684774414
509,araguaina,-7.1911,-48.2072,31.27000000000004,50,15,3.32,BR,1684774414
510,neiafu,-18.65,-173.9833,23.379999999999995,94,40,0.0,TO,1684774414
511,charters towers,-20.1,146.2667,10.830000000000041,75,48,2.78,AU,1684774414
512,morondava,-20.2833,44.2833,24.470000000000027,73,0,6.51,MG,1684774415
513,pagar alam,-4.0167,103.2667,19.25,97,51,1.56,ID,1684774415
514,egremont,54.4794,-3.5276,16.930000000000007,59,32,5.9,GB,1684774415
515,kavaratti,10.5669,72.642,29.75,71,93,3.11,IN,1684773949
516,sfantu gheorghe,45.8667,25.7833,14.590000000000032,61,59,4.09,RO,1684774256
517,banjarmasin,-3.3244,114.591,23.53000000000003,87,48,1.23,ID,1684774415
518,baoding,38.8511,115.4903,17.29000000000002,27,1,0.95,CN,1684774415
519,tarauaca,-8.1614,-70.7656,31.78000000000003,59,48,1.22,BR,1684774415
520,yuzhno-kurilsk,44.0306,145.8556,4.4500000000000455,92,68,8.47,RU,1684774002
521,tinogasta,-28.0632,-67.5649,26.74000000000001,14,24,2.34,AR,1684774415
522,tuxpan,19.55,-103.4,32.39000000000004,25,3,1.42,MX,1684774415
523,inderbor,48.55,51.7833,21.55000000000001,37,100,7.87,KZ,1684774416
524,bhamo,24.2667,97.2333,26.939999999999998,48,37,0.66,MM,1684774416
525,campos novos,-27.4017,-51.225,18.710000000000036,55,94,2.09,BR,1684774416
526,ujae,8.9322,165.7642,28.05000000000001,76,100,5.29,MH,1684774416
527,caleta de carquin,-11.0925,-77.6267,23.390000000000043,72,70,5.04,PE,1684774416
528,kantunilkin,21.0917,-87.45,35.73000000000002,30,0,1.71,MX,1684774416
529,thunder bay,48.4001,-89.3168,10.990000000000009,50,100,4.63,CA,1684773704
530,san matias,-16.3667,-58.4,29.980000000000018,53,98,2.16,BO,1684774416
531,sydney mines,46.2367,-60.2177,9.590000000000032,75,75,7.72,CA,1684774416
532,inongo,-1.95,18.2667,21.670000000000016,98,99,1.75,CD,1684774416
533,zhangzhou,24.5133,117.6556,25.960000000000036,95,81,3.28,CN,1684774417
534,maragogi,-9.0122,-35.2225,27.75,76,19,4.12,BR,1684774417
535,colares,38.7992,-9.4469,22.810000000000002,54,20,7.2,PT,1684774417
536,masina,-4.3836,15.3914,24.730000000000018,87,87,0.82,CD,1684774417
537,jati,24.3539,68.2671,29.460000000000036,71,81,7.6,PK,1684774417
538,kamakhyanagar,20.9333,85.55,30.629999999999995,50,19,1.52,IN,1684774417
539,aranyaprathet,13.6928,102.5013,26.5,82,93,2.48,TH,1684774417
540,bubaque,11.2833,-15.8333,27.180000000000007,69,90,4.49,GW,1684774417
541,kangding,30.0513,101.9603,10.140000000000043,97,100,2.14,CN,1684774417
542,motilla del palancar,39.5709,-1.9068,16.900000000000034,60,91,3.58,ES,1684774417
543,male,4.1748,73.5089,27.970000000000027,83,20,1.03,MV,1684774417
544,ribe,55.3305,8.7697,21.220000000000027,77,100,3.96,DK,1684774418
545,conduaga,8.862,117.4893,27.060000000000002,81,80,0.79,PH,1684774418
546,port isabel,26.0734,-97.2086,30.58000000000004,77,75,4.47,US,1684773953
547,nsanje,-16.92,35.262,25.110000000000014,49,1,1.93,MW,1684774418
548,villa gesell,-37.2639,-56.973,20.590000000000032,79,100,4.66,AR,1684773969
549,maxixe,-23.8597,35.3472,21.629999999999995,68,85,4.64,MZ,1684774418
550,sinabang,2.4803,96.3801,27.120000000000005,82,90,2.46,ID,1684773967
551,ponta delgada,37.7333,-25.6667,21.400000000000034,60,20,4.12,PT,1684773966
552,mokhotlong,-29.2894,29.0675,4.100000000000023,68,50,2.25,LS,1684774418
553,aral,40.5156,81.2636,22.600000000000023,25,26,4.96,CN,1684774418
554,hachinohe,40.5,141.5,11.720000000000027,86,100,1.12,JP,1684774418
555,langzhong,31.5504,105.9938,14.700000000000045,80,88,0.56,CN,1684774418
556,asau,46.4333,26.4,19.510000000000048,69,11,2.62,RO,1684774419
557,the pas,53.8251,-101.2541,16.010000000000048,51,0,2.57,CA,1684774419
558,quellon,-43.1167,-73.6167,9.140000000000043,87,75,4.63,CL,1684774010
559,narasannapeta,18.4167,84.05,27.80000000000001,66,99,3.85,IN,1684774419
560,pelabuhanratu,-6.9875,106.5514,25.52000000000004,88,100,1.77,ID,1684774419
561,ibiza,38.9088,1.433,20.900000000000034,70,40,5.81,ES,1684774418
562,mopti,14.6667,-4.0,40.02000000000004,24,40,3.09,ML,1684774419
563,kirillov,59.863,38.3813,15.490000000000009,79,100,2.07,RU,1684774419
564,santa marta,11.2408,-74.199,31.03000000000003,70,40,3.09,CO,1684774419
565,beboto,8.2668,16.939,30.57000000000005,50,51,2.42,TD,1684774419
566,preobrazheniye,42.9019,133.9064,7.520000000000039,93,12,2.61,RU,1684774419
567,fort bragg,35.139,-79.006,27.33000000000004,42,0,4.12,US,1684773954
568,kununurra,-15.7667,128.7333,18.99000000000001,37,0,2.57,AU,1684773722
569,newman,37.3138,-121.0208,24.189999999999998,50,21,2.24,US,1684773969
570,kalmunai,7.4167,81.8167,26.620000000000005,84,10,4.31,LK,1684773982
571,puerto cabezas,14.0351,-83.3888,30.980000000000018,79,40,0.0,NI,1684774420
572,rasht,37.2808,49.5832,19.900000000000034,88,0,0.0,IR,1684774420
573,kenai,60.5544,-151.2583,7.860000000000014,77,100,3.09,US,1684774420
574,zarzis,33.504,11.1122,20.510000000000048,71,0,8.21,TN,1684774420
575,kidal,18.4411,1.4078,41.120000000000005,10,62,4.75,ML,1684774420
